<?xml version="1.0" encoding="UTF-8"?>
<kml xmlns="http://www.opengis.net/kml/2.2">
	 <Document>
		<Placemark>
			<Style>
				<IconStyle>
					<Icon>
						<href>http://maps.google.com/mapfiles/kml/pushpin/blue-pushpin.png</href>
					</Icon>
				</IconStyle>
			</Style>
			<name>Oviedo</name>
			<description> Lugar de nacimiento de Alex Caso Diaz</description>
			<Point>
				<coordinates>-5.84476,43.3603,238</coordinates>
			</Point>
		</Placemark>
		<Placemark>
			<Style>
				<IconStyle>
					<Icon>
						<href>http://maps.google.com/mapfiles/kml/pushpin/red-pushpin.png</href>
					</Icon>
				</IconStyle>
			</Style>
			<name>El Entrego</name>
			<description> Lugar de residencia de Alex Caso Diaz</description>
			<Point>
				<coordinates>-5.64469123297325,43.28726995,230</coordinates>
			</Point>
		</Placemark>
		<Placemark>
			<Style>
				<IconStyle>
					<Icon>
						<href>http://maps.google.com/mapfiles/kml/pushpin/blue-pushpin.png</href>
					</Icon>
				</IconStyle>
			</Style>
			<name>Madrid</name>
			<description> Lugar de nacimiento de Carlos Vazquez Castro</description>
			<Point>
				<coordinates>-3.70325,40.4167,659</coordinates>
			</Point>
		</Placemark>
		<Placemark>
			<Style>
				<IconStyle>
					<Icon>
						<href>http://maps.google.com/mapfiles/kml/pushpin/red-pushpin.png</href>
					</Icon>
				</IconStyle>
			</Style>
			<name>La Felguera</name>
			<description> Lugar de residencia de Carlos Vazquez Castro</description>
			<Point>
				<coordinates>-5.68254,43.2964,214</coordinates>
			</Point>
		</Placemark>
		<Placemark>
			<Style>
				<IconStyle>
					<Icon>
						<href>http://maps.google.com/mapfiles/kml/pushpin/blue-pushpin.png</href>
					</Icon>
				</IconStyle>
			</Style>
			<name>Laviana</name>
			<description> Lugar de nacimiento de Lucas Perez Garcia</description>
			<Point>
				<coordinates>-5.54073,43.2149,478</coordinates>
			</Point>
		</Placemark>
		<Placemark>
			<Style>
				<IconStyle>
					<Icon>
						<href>http://maps.google.com/mapfiles/kml/pushpin/red-pushpin.png</href>
					</Icon>
				</IconStyle>
			</Style>
			<name>Barredos</name>
			<description> Lugar de residencia de Lucas Perez Garcia</description>
			<Point>
				<coordinates>-5.573500,43.259900,275</coordinates>
			</Point>
		</Placemark>
		<Placemark>
			<Style>
				<IconStyle>
					<Icon>
						<href>http://maps.google.com/mapfiles/kml/pushpin/blue-pushpin.png</href>
					</Icon>
				</IconStyle>
			</Style>
			<name>Barcelona</name>
			<description> Lugar de nacimiento de Pedro Riesco Lopez</description>
			<Point>
				<coordinates>2.15899,41.38879,12</coordinates>
			</Point>
		</Placemark>
		<Placemark>
			<Style>
				<IconStyle>
					<Icon>
						<href>http://maps.google.com/mapfiles/kml/pushpin/red-pushpin.png</href>
					</Icon>
				</IconStyle>
			</Style>
			<name>Granada</name>
			<description> Lugar de residencia de Pedro Riesco Lopez</description>
			<Point>
				<coordinates>-3.6075800581628528, 37.182171999371334,738</coordinates>
			</Point>
		</Placemark>
		<Placemark>
			<Style>
				<IconStyle>
					<Icon>
						<href>http://maps.google.com/mapfiles/kml/pushpin/blue-pushpin.png</href>
					</Icon>
				</IconStyle>
			</Style>
			<name>Vigo</name>
			<description> Lugar de nacimiento de Deva Leal Vazquez</description>
			<Point>
				<coordinates>-8.7226400,42.2328200,6</coordinates>
			</Point>
		</Placemark>
		<Placemark>
			<Style>
				<IconStyle>
					<Icon>
						<href>http://maps.google.com/mapfiles/kml/pushpin/red-pushpin.png</href>
					</Icon>
				</IconStyle>
			</Style>
			<name>Logroño</name>
			<description> Lugar de residencia de Deva Leal Vazquez</description>
			<Point>
				<coordinates>-2.45,42.46667,384</coordinates>
			</Point>
		</Placemark>
		<Placemark>
			<Style>
				<IconStyle>
					<Icon>
						<href>http://maps.google.com/mapfiles/kml/pushpin/blue-pushpin.png</href>
					</Icon>
				</IconStyle>
			</Style>
			<name>Aviles</name>
			<description> Lugar de nacimiento de Luis Alvaredo Fernandez</description>
			<Point>
				<coordinates>-5.9248300,43.5547300,10</coordinates>
			</Point>
		</Placemark>
		<Placemark>
			<Style>
				<IconStyle>
					<Icon>
						<href>http://maps.google.com/mapfiles/kml/pushpin/red-pushpin.png</href>
					</Icon>
				</IconStyle>
			</Style>
			<name>San Claudio</name>
			<description> Lugar de residencia de Luis Alvaredo Fernandez</description>
			<Point>
				<coordinates>-5.9167,43.35,183</coordinates>
			</Point>
		</Placemark>
		<Placemark>
			<Style>
				<IconStyle>
					<Icon>
						<href>http://maps.google.com/mapfiles/kml/pushpin/blue-pushpin.png</href>
					</Icon>
				</IconStyle>
			</Style>
			<name>Mallorca</name>
			<description> Lugar de nacimiento de Silvia Perez Garcia</description>
			<Point>
				<coordinates>2.65024,39.56939,13</coordinates>
			</Point>
		</Placemark>
		<Placemark>
			<Style>
				<IconStyle>
					<Icon>
						<href>http://maps.google.com/mapfiles/kml/pushpin/red-pushpin.png</href>
					</Icon>
				</IconStyle>
			</Style>
			<name>Leon</name>
			<description> Lugar de residencia de Silvia Perez Garcia</description>
			<Point>
				<coordinates>-5.5703200,42.6000300,837</coordinates>
			</Point>
		</Placemark>
		<Placemark>
			<Style>
				<IconStyle>
					<Icon>
						<href>http://maps.google.com/mapfiles/kml/pushpin/blue-pushpin.png</href>
					</Icon>
				</IconStyle>
			</Style>
			<name>Valencia</name>
			<description> Lugar de nacimiento de Pau Estape Dominguez</description>
			<Point>
				<coordinates>-0.3773900,39.4697500,15</coordinates>
			</Point>
		</Placemark>
		<Placemark>
			<Style>
				<IconStyle>
					<Icon>
						<href>http://maps.google.com/mapfiles/kml/pushpin/red-pushpin.png</href>
					</Icon>
				</IconStyle>
			</Style>
			<name>Alicante</name>
			<description> Lugar de residencia de Pau Estape Dominguez</description>
			<Point>
				<coordinates>-0.48149,38.34517,3</coordinates>
			</Point>
		</Placemark>
		<Placemark>
			<Style>
				<IconStyle>
					<Icon>
						<href>http://maps.google.com/mapfiles/kml/pushpin/blue-pushpin.png</href>
					</Icon>
				</IconStyle>
			</Style>
			<name>Santander</name>
			<description> Lugar de nacimiento de Paula Suarez Perez</description>
			<Point>
				<coordinates>-3.80444,43.46472,350</coordinates>
			</Point>
		</Placemark>
		<Placemark>
			<Style>
				<IconStyle>
					<Icon>
						<href>http://maps.google.com/mapfiles/kml/pushpin/red-pushpin.png</href>
					</Icon>
				</IconStyle>
			</Style>
			<name>Villoria</name>
			<description> Lugar de residencia de Paula Suarez Perez</description>
			<Point>
				<coordinates>-5.565584,43.21563,339</coordinates>
			</Point>
		</Placemark>
		<Placemark>
			<Style>
				<IconStyle>
					<Icon>
						<href>http://maps.google.com/mapfiles/kml/pushpin/blue-pushpin.png</href>
					</Icon>
				</IconStyle>
			</Style>
			<name>Riaño</name>
			<description> Lugar de nacimiento de Elias Llera García</description>
			<Point>
				<coordinates>-5.6842,43.2957,219</coordinates>
			</Point>
		</Placemark>
		<Placemark>
			<Style>
				<IconStyle>
					<Icon>
						<href>http://maps.google.com/mapfiles/kml/pushpin/red-pushpin.png</href>
					</Icon>
				</IconStyle>
			</Style>
			<name>Celorio</name>
			<description> Lugar de residencia de Elias Llera García</description>
			<Point>
				<coordinates>-5.084258,43.348995,24</coordinates>
			</Point>
		</Placemark>
		<Placemark>
			<Style>
				<IconStyle>
					<Icon>
						<href>http://maps.google.com/mapfiles/kml/pushpin/blue-pushpin.png</href>
					</Icon>
				</IconStyle>
			</Style>
			<name>Burgos</name>
			<description> Lugar de nacimiento de Antonio Crespo Suarez</description>
			<Point>
				<coordinates>-3.70184,42.34106,865</coordinates>
			</Point>
		</Placemark>
		<Placemark>
			<Style>
				<IconStyle>
					<Icon>
						<href>http://maps.google.com/mapfiles/kml/pushpin/red-pushpin.png</href>
					</Icon>
				</IconStyle>
			</Style>
			<name>La Fresneda</name>
			<description> Lugar de residencia de Antonio Crespo Suarez</description>
			<Point>
				<coordinates>-5.7902107,43.4120284,170</coordinates>
			</Point>
		</Placemark>
		<Placemark>
			<Style>
				<IconStyle>
					<Icon>
						<href>http://maps.google.com/mapfiles/kml/pushpin/blue-pushpin.png</href>
					</Icon>
				</IconStyle>
			</Style>
			<name>Toledo</name>
			<description> Lugar de nacimiento de Celia Melendi Sopeña</description>
			<Point>
				<coordinates>-4.0226300,39.8581000,529</coordinates>
			</Point>
		</Placemark>
		<Placemark>
			<Style>
				<IconStyle>
					<Icon>
						<href>http://maps.google.com/mapfiles/kml/pushpin/red-pushpin.png</href>
					</Icon>
				</IconStyle>
			</Style>
			<name>Pola de Siero</name>
			<description> Lugar de residencia de Celia Melendi Sopeña</description>
			<Point>
				<coordinates>-5.661695,43.391049,220</coordinates>
			</Point>
		</Placemark>
		<Placemark>
			<Style>
				<IconStyle>
					<Icon>
						<href>http://maps.google.com/mapfiles/kml/pushpin/blue-pushpin.png</href>
					</Icon>
				</IconStyle>
			</Style>
			<name>Oporto</name>
			<description> Lugar de nacimiento de Alberto Monteiro Iniesta</description>
			<Point>
				<coordinates>-8.61099,41.14961,104</coordinates>
			</Point>
		</Placemark>
		<Placemark>
			<Style>
				<IconStyle>
					<Icon>
						<href>http://maps.google.com/mapfiles/kml/pushpin/red-pushpin.png</href>
					</Icon>
				</IconStyle>
			</Style>
			<name>Badajoz</name>
			<description> Lugar de residencia de Alberto Monteiro Iniesta</description>
			<Point>
				<coordinates>-6.97061,38.87789,185</coordinates>
			</Point>
		</Placemark>
	 </Document>
</kml>
